,city,Cloudiness,Country,Date,Humidity,Latitude,Longitude,MaxTemperature,Wind Speed
0,arraial do cabo,40.0,BR,1540659600,63.0,-22.97,-42.02,91.4,4.27
1,lompoc,1.0,US,1540659480,63.0,34.64,-120.46,68.0,2.93
2,hazorasp,90.0,UZ,1540659600,76.0,41.32,61.08,48.2,16.11
3,east london,20.0,ZA,1540659600,82.0,-33.02,27.91,68.0,11.41
4,havre-saint-pierre,20.0,CA,1540659600,50.0,50.23,-63.6,30.2,14.99
5,albany,90.0,US,1540659240,86.0,42.65,-73.75,41.0,11.41
6,hithadhoo,88.0,MV,1540661178,100.0,-0.6,73.08,79.76,14.23
7,kapaa,40.0,US,1540659360,78.0,22.08,-159.32,77.0,11.41
8,kavieng,56.0,PG,1540661155,100.0,-2.57,150.8,80.89,2.93
9,emba,75.0,CY,1540659600,53.0,34.81,32.42,71.6,3.36
10,uppsala,56.0,SE,1540659000,74.0,59.86,17.64,35.6,14.99
11,busselton,0.0,AU,1540661086,100.0,-33.64,115.35,58.66,14.67
12,yellowknife,90.0,CA,1540659600,92.0,62.45,-114.38,30.2,8.05
13,rikitea,8.0,PF,1540661031,100.0,-23.12,-134.97,73.24,13.67
14,shubarkuduk,64.0,KZ,1540661612,80.0,49.15,56.49,39.62,13.89
15,muscat,75.0,OM,1540659000,70.0,23.6,58.55,86.0,5.82
16,kaitangata,92.0,NZ,1540660921,98.0,-46.28,169.85,45.79,3.49
17,waltershausen,0.0,DE,1540660800,75.0,50.9,10.57,42.8,4.7
18,vaini,0.0,IN,1540660916,44.0,15.34,74.49,71.26,4.5
19,broken arrow,1.0,US,1540659300,43.0,36.05,-95.79,73.4,4.7
20,mataura,92.0,NZ,1540661125,97.0,-46.19,168.86,42.32,3.04
21,gillette,90.0,US,1540659180,81.0,44.29,-105.5,48.2,17.22
22,marawi,32.0,PH,1540661614,94.0,8.0,124.29,61.63,1.92
23,nerang,40.0,AU,1540659600,82.0,-27.99,153.34,68.0,5.82
24,jamestown,92.0,AU,1540660919,66.0,-33.21,138.6,56.27,3.38
25,ushuaia,40.0,AR,1540656000,61.0,-54.81,-68.31,48.2,27.51
26,faanui,88.0,PF,1540661148,100.0,-16.48,-151.75,76.25,6.06
27,ranau,24.0,MY,1540661614,100.0,5.95,116.67,67.25,1.92
28,san patricio,0.0,PY,1540661221,60.0,-26.98,-56.83,75.94,6.62
29,bluff,0.0,AU,1540661124,84.0,-23.58,149.07,67.43,4.61
30,chuy,44.0,UY,1540661123,90.0,-33.69,-53.46,66.26,15.68
31,cidreira,92.0,BR,1540661142,99.0,-30.17,-50.22,62.44,30.56
32,ribeira grande,20.0,PT,1540659600,60.0,38.52,-28.7,69.8,23.04
33,hamilton,90.0,BM,1540659300,65.0,32.3,-64.78,77.0,20.8
34,trofors,0.0,NO,1540659000,74.0,65.54,13.39,32.0,8.05
35,sao joao dos patos,8.0,BR,1540661616,37.0,-6.5,-43.7,96.23,4.16
36,samarai,88.0,PG,1540660989,100.0,-10.62,150.67,79.81,9.31
37,sudbury,75.0,CA,1540659600,59.0,46.49,-80.99,37.4,16.11
38,bredasdorp,0.0,ZA,1540659600,77.0,-34.53,20.04,68.0,13.87
39,hobart,75.0,AU,1540659600,49.0,-42.88,147.33,46.4,9.17
40,mahebourg,20.0,MU,1540659600,73.0,-20.41,57.7,71.6,3.36
41,sabha,0.0,LY,1540661616,63.0,27.03,14.43,66.76,4.72
42,ciro marina,20.0,IT,1540659000,82.0,39.37,17.13,68.0,20.8
43,hambantota,76.0,LK,1540661204,100.0,6.12,81.12,79.18,6.62
44,tuktoyaktuk,90.0,CA,1540659600,92.0,69.44,-133.03,28.4,9.17
45,kinablangan,44.0,PH,1540661617,100.0,7.69,126.55,82.06,10.65
46,hervey bay,0.0,AU,1540661460,100.0,-25.3,152.85,73.06,9.53
47,strezhevoy,90.0,RU,1540659600,100.0,60.73,77.6,42.8,6.71
48,sioux lookout,90.0,CA,1540659840,100.0,50.1,-91.92,41.0,6.93
49,cape town,0.0,ZA,1540659600,57.0,-33.93,18.42,77.0,4.7
50,vila franca do campo,40.0,PT,1540659600,63.0,37.72,-25.43,66.2,20.8
51,yining,0.0,CN,1540661618,73.0,29.04,114.56,38.9,2.15
52,veraval,75.0,FR,1540659600,80.0,49.65,0.71,41.0,5.82
53,ponta do sol,56.0,BR,1540661131,81.0,-20.63,-46.0,77.38,12.21
54,ambilobe,12.0,MG,1540661238,51.0,-13.19,49.05,72.65,3.94
55,mar del plata,0.0,AR,1540661172,40.0,-46.43,-67.52,69.73,8.97
56,joshimath,20.0,IN,1540661619,82.0,30.57,79.57,9.83,1.14
57,conakry,40.0,GN,1540659600,66.0,9.52,-13.7,89.6,4.7
58,swan hill,36.0,AU,1540661167,73.0,-35.34,143.56,52.81,8.41
59,bethel,1.0,US,1540659180,86.0,60.79,-161.76,28.4,16.11
60,port elizabeth,90.0,US,1540659600,93.0,39.31,-74.98,62.6,17.22
61,upernavik,92.0,GL,1540661146,100.0,72.79,-56.15,22.48,22.5
62,ilulissat,75.0,GL,1540659000,47.0,69.22,-51.1,37.4,9.17
63,armidale,0.0,AU,1540661620,75.0,-30.51,151.67,45.11,4.61
64,maniitsoq,92.0,GL,1540661620,99.0,65.42,-52.9,35.53,20.71
65,nogliki,100.0,RU,1540661620,99.0,51.8,143.14,45.65,32.79
66,koumac,0.0,NC,1540661621,96.0,-20.56,164.28,66.98,4.38
67,suleja,20.0,NG,1540659600,69.0,9.18,7.18,80.6,2.24
68,saint-philippe,75.0,CA,1540659600,51.0,45.36,-73.48,42.8,17.22
69,waingapu,56.0,ID,1540661161,95.0,-9.65,120.26,71.48,3.15
70,mokolo,20.0,CM,1540659600,52.0,10.74,13.8,89.6,3.36
71,khatanga,92.0,RU,1540660963,89.0,71.98,102.47,27.16,16.58
72,zarya,32.0,RU,1540661621,79.0,45.67,39.64,47.5,7.74
73,awbari,0.0,LY,1540661163,33.0,26.59,12.77,73.46,6.73
74,general delgado,40.0,PY,1540656000,50.0,-27.09,-56.53,75.2,14.99
75,atuona,92.0,PF,1540661143,100.0,-9.8,-139.03,76.52,15.9
76,okha,92.0,RU,1540661622,93.0,53.59,142.95,43.4,28.88
77,hasaki,75.0,JP,1540657800,82.0,35.73,140.83,60.8,9.17
78,tazovskiy,56.0,RU,1540661623,90.0,67.47,78.7,32.33,24.18
79,bontang,48.0,ID,1540661623,100.0,0.12,117.47,79.45,4.72
80,hilo,75.0,US,1540659360,88.0,19.71,-155.08,73.4,5.82
81,ushtobe,24.0,KZ,1540661126,61.0,45.25,77.98,43.31,4.05
82,neryungri,80.0,RU,1540661234,73.0,56.66,124.71,13.39,17.58
83,meulaboh,48.0,ID,1540660947,100.0,4.14,96.13,77.11,2.71
84,quatre cocos,20.0,MU,1540659600,73.0,-20.21,57.76,71.6,3.36
85,kodiak,1.0,US,1540655580,67.0,39.95,-94.76,57.2,6.29
86,shenjiamen,0.0,CN,1540661624,88.0,29.96,122.3,63.79,10.98
87,castro,92.0,CL,1540661142,91.0,-42.48,-73.76,56.05,5.61
88,whitecourt,75.0,CA,1540659600,48.0,54.14,-115.68,42.8,11.41
89,bereda,75.0,ES,1540659600,93.0,43.27,-7.54,44.6,8.05
90,muisne,44.0,EC,1540661624,69.0,0.61,-80.02,81.88,7.63
91,wajima,92.0,JP,1540661625,85.0,37.4,136.9,60.64,14.0
92,bambous virieux,20.0,MU,1540659600,73.0,-20.34,57.76,71.6,3.36
93,grand gaube,20.0,MU,1540659600,73.0,-20.01,57.66,71.6,3.36
94,narsaq,75.0,GL,1540659000,96.0,60.91,-46.05,37.4,3.36
95,abbeville,88.0,FR,1540659600,87.0,50.11,1.83,42.8,6.93
96,lagoa,0.0,PT,1540659600,34.0,37.14,-8.45,64.4,16.11
97,komsomolskiy,80.0,RU,1540661626,93.0,67.55,63.78,25.76,16.13
98,dingle,20.0,PH,1540661150,90.0,11.0,122.67,74.36,5.61
99,wanaka,88.0,NZ,1540661626,88.0,-44.7,169.14,36.02,1.59
100,karratha,0.0,AU,1540661230,70.0,-20.74,116.85,71.12,8.41
101,bathsheba,40.0,BB,1540659600,66.0,13.22,-59.52,86.0,12.75
102,luderitz,36.0,NA,1540656000,30.0,-26.65,15.16,86.0,2.24
103,airai,0.0,TL,1540661190,83.0,-8.93,125.41,62.35,0.58
104,thompson,90.0,CA,1540659600,91.0,55.74,-97.86,32.0,5.82
105,palora,24.0,EC,1540661627,73.0,-1.7,-77.97,74.27,3.94
106,riyadh,75.0,SA,1540659600,61.0,24.63,46.72,78.8,18.34
107,chokurdakh,88.0,RU,1540661124,86.0,70.62,147.9,7.13,5.73
108,camopi,44.0,GF,1540661627,46.0,3.17,-52.33,94.03,3.6
109,barrow,48.0,AR,1540660904,63.0,-38.31,-60.23,72.16,8.63
110,arica,0.0,CL,1540659600,60.0,-18.48,-70.32,71.6,13.87
111,nha trang,80.0,VN,1540661628,96.0,12.24,109.19,78.77,15.35
112,matay,0.0,EG,1540661628,51.0,28.42,30.79,65.95,9.53
113,kloulklubed,90.0,PW,1540659000,88.0,7.04,134.26,78.8,6.93
114,kirakira,36.0,SB,1540661628,100.0,-10.46,161.92,83.0,1.03
115,phibun mangsahan,0.0,TH,1540659600,78.0,15.24,105.23,77.0,6.93
116,port alfred,36.0,ZA,1540660915,88.0,-33.59,26.89,69.73,14.79
117,ostrovnoy,80.0,RU,1540661197,82.0,68.05,39.51,29.0,10.65
118,carnarvon,0.0,ZA,1540661144,12.0,-30.97,22.13,72.34,2.71
119,suntar,80.0,RU,1540661629,83.0,62.16,117.65,21.26,4.38
120,bosaso,0.0,SO,1540661393,100.0,11.28,49.18,78.01,5.73
121,saskylakh,92.0,RU,1540660993,88.0,71.97,114.09,15.95,22.84
122,christchurch,0.0,NZ,1540659600,93.0,-43.53,172.64,42.8,5.82
123,korcula,20.0,HR,1540659600,64.0,42.96,17.14,69.8,8.05
124,geraldton,90.0,CA,1540659600,84.0,49.72,-86.95,35.6,5.82
125,bajna,0.0,HU,1540659600,87.0,47.66,18.6,57.2,8.05
126,puerto ayora,20.0,EC,1540656000,57.0,-0.74,-90.35,78.8,16.11
127,esperance,40.0,TT,1540659600,52.0,10.24,-61.45,89.6,11.41
128,aykhal,92.0,RU,1540661219,83.0,65.95,111.51,21.04,13.78
129,tuatapere,92.0,NZ,1540661156,100.0,-46.13,167.69,45.34,2.93
130,ballina,20.0,IE,1540659600,93.0,54.11,-9.15,37.4,9.17
131,ixtapa,20.0,MX,1540658940,70.0,20.71,-105.21,84.2,3.36
132,tasiilaq,92.0,GL,1540659000,95.0,65.61,-37.64,32.0,47.2
133,buraydah,40.0,SA,1540659600,60.0,26.33,43.97,71.6,17.22
134,avarua,90.0,CK,1540659600,94.0,-21.21,-159.78,71.6,11.41
135,lazaro cardenas,5.0,MX,1540658520,42.0,28.39,-105.62,66.2,3.71
136,jawhar,44.0,IN,1540661631,40.0,19.91,73.23,81.7,5.61
137,deer lake,90.0,CA,1540659600,64.0,49.18,-57.43,35.6,11.41
138,miri,0.0,NG,1540661632,68.0,10.31,9.75,77.87,2.37
139,qaanaaq,0.0,GL,1540661158,100.0,77.48,-69.36,-7.45,10.09
140,tocopilla,0.0,CL,1540661199,94.0,-22.09,-70.2,65.14,5.61
141,roald,20.0,NO,1540659000,100.0,62.58,6.12,32.0,2.24
142,innisfail,75.0,CA,1540659600,46.0,52.02,-113.95,35.6,2.24
143,nikolskoye,75.0,RU,1540657800,95.0,59.7,30.79,33.8,15.66
144,macapa,40.0,BR,1540659600,50.0,0.05,-51.07,95.0,10.29
145,saint-augustin,0.0,FR,1540659600,61.0,44.83,-0.61,50.0,8.05
146,boundiali,68.0,CI,1540661633,37.0,9.53,-6.48,91.24,8.75
147,itupiranga,40.0,BR,1540659600,39.0,-5.13,-49.33,100.4,4.7
148,santa vitoria do palmar,44.0,BR,1540661634,90.0,-33.52,-53.37,66.26,15.68
149,noumea,20.0,NC,1540659600,93.0,-22.28,166.46,62.6,3.36
150,hami,0.0,CN,1540661168,58.0,42.84,93.51,34.76,5.17
151,weligama,44.0,LK,1540661634,100.0,5.97,80.42,77.42,10.87
152,hermanus,0.0,ZA,1540661146,48.0,-34.42,19.24,78.1,3.94
153,paramonga,56.0,PE,1540661635,98.0,-10.68,-77.82,62.3,7.18
154,san angelo,1.0,US,1540659060,50.0,31.46,-100.44,77.0,10.29
155,burgeo,0.0,CA,1540661222,100.0,47.61,-57.61,42.46,16.69
156,amapa,40.0,HN,1540659600,62.0,15.09,-87.97,87.8,9.17
157,iqaluit,90.0,CA,1540659600,85.0,63.75,-68.52,23.0,23.04
158,nanortalik,92.0,GL,1540660945,93.0,60.14,-45.24,36.43,13.67
159,sobolevo,92.0,RU,1540661636,95.0,54.43,31.9,45.34,17.69
160,sola,75.0,FI,1540659000,90.0,62.78,29.36,32.0,10.29
161,provideniya,0.0,RU,1540661124,100.0,64.42,-173.23,25.0,11.77
162,praia da vitoria,75.0,PT,1540659600,63.0,38.73,-27.07,66.2,21.16
163,katobu,0.0,ID,1540661636,100.0,-4.94,122.53,79.54,3.6
164,cherskiy,8.0,RU,1540661151,62.0,68.75,161.3,-13.44,2.26
165,pangkalanbuun,12.0,ID,1540661637,98.0,-2.68,111.62,72.38,3.38
166,namatanai,68.0,PG,1540661252,100.0,-3.66,152.44,79.4,4.94
167,new norfolk,75.0,AU,1540659600,49.0,-42.78,147.06,46.4,9.17
168,saint george,0.0,GR,1540659000,82.0,39.45,22.34,64.4,4.16
169,harwich,90.0,US,1540660500,93.0,41.69,-70.08,53.6,28.86
170,eureka,90.0,US,1540659300,100.0,40.8,-124.16,60.8,4.7
171,jaciara,32.0,BR,1540661638,73.0,-15.95,-54.98,87.77,9.86
172,alice springs,90.0,AU,1540659600,88.0,-23.7,133.88,66.2,6.93
173,caravelas,0.0,BR,1540661638,96.0,-17.73,-39.27,79.22,29.89
174,kabanjahe,68.0,ID,1540661638,100.0,3.1,98.49,66.4,1.92
175,georgetown,75.0,GY,1540656000,55.0,6.8,-58.16,91.4,11.41
176,sept-iles,20.0,CA,1540659600,42.0,50.2,-66.38,30.2,8.05
177,fortuna,40.0,ES,1540659600,64.0,38.18,-1.13,68.0,4.7
178,toora-khem,0.0,RU,1540661639,75.0,52.47,96.11,12.13,1.92
179,vardo,90.0,US,1540659960,87.0,39.62,-77.74,48.2,11.41
180,etne,20.0,NO,1540659000,56.0,59.66,5.93,41.0,9.17
181,punta arenas,40.0,CL,1540656000,57.0,-53.16,-70.91,51.8,26.4
182,nelson bay,90.0,AU,1540659600,88.0,-32.72,152.14,64.4,4.7
183,dvubratskiy,0.0,RU,1540659600,93.0,45.26,39.79,51.8,6.71
184,vestmannaeyjar,75.0,IS,1540659600,69.0,63.44,-20.27,39.2,23.04
185,uige,32.0,AO,1540661379,79.0,-7.61,15.06,74.63,0.92
186,megion,90.0,RU,1540659600,100.0,61.04,76.11,42.8,6.71
187,tiksi,0.0,RU,1540661153,72.0,71.64,128.87,10.69,14.0
188,kijang,0.0,KR,1540659600,75.0,35.24,129.21,44.6,2.24
189,jinxiang,0.0,CN,1540661640,45.0,35.07,116.31,46.01,11.32
190,yatou,40.0,CM,1540659600,78.0,3.63,9.81,82.4,3.36
191,mount gambier,8.0,AU,1540661171,87.0,-37.83,140.78,41.2,2.48
192,castelnuovo rangone,40.0,IT,1540659300,46.0,44.55,10.94,71.6,5.82
193,butaritari,48.0,KI,1540660942,100.0,3.07,172.79,85.48,11.21
194,torres,80.0,BR,1540661641,100.0,-29.34,-49.73,65.68,23.96
195,izberbash,12.0,RU,1540659600,61.0,42.57,47.86,46.4,6.71
196,margate,75.0,AU,1540659600,49.0,-43.03,147.26,46.4,9.17
197,jalalabad,0.0,AF,1540661642,88.0,34.43,70.46,44.53,2.37
198,tchibanga,92.0,GA,1540661642,93.0,-2.92,11.0,76.84,3.83
199,ararat,0.0,AU,1540661642,92.0,-37.28,142.93,39.62,4.38
200,cururupu,0.0,BR,1540661643,54.0,-1.82,-44.87,90.65,12.1
201,kailua,40.0,US,1540659420,78.0,21.39,-157.74,78.8,9.17
202,yar-sale,88.0,RU,1540661643,96.0,66.83,70.83,32.2,28.88
203,flin flon,90.0,CA,1540659600,100.0,54.77,-101.88,32.0,9.17
204,villa maria,75.0,CO,1540659600,55.0,4.5,-74.09,86.0,11.41
205,nieuw amsterdam,40.0,SR,1540659600,55.0,5.88,-55.08,93.2,9.17
206,pradopolis,90.0,BR,1540659600,69.0,-21.36,-48.07,78.8,14.99
207,vostok,88.0,RU,1540661228,83.0,46.45,135.83,27.7,6.4
208,broken hill,68.0,AU,1540660949,56.0,-31.97,141.45,62.21,9.19
209,nenjiang,92.0,CN,1540661644,75.0,49.17,125.23,27.16,13.0
210,sisimiut,64.0,GL,1540661166,100.0,66.94,-53.67,28.96,1.81
211,kupang,20.0,ID,1540661645,100.0,-10.16,123.6,76.66,3.38
212,belaya gora,88.0,RU,1540661137,80.0,68.54,146.19,6.73,11.21
213,ocampo,92.0,PH,1540661645,89.0,13.56,123.37,80.08,14.67
214,mahibadhoo,88.0,MV,1540661562,100.0,3.78,72.97,81.38,7.4
215,longyearbyen,75.0,NO,1540659000,67.0,78.22,15.63,17.6,12.75
216,banamba,8.0,ML,1540661645,23.0,13.55,-7.45,92.23,5.95
217,katsuura,48.0,JP,1540661248,93.0,33.93,134.5,56.41,9.31
218,dakar,0.0,SN,1540659600,69.0,14.69,-17.45,82.4,13.87
219,anadyr,0.0,RU,1540656000,62.0,64.73,177.51,23.0,8.95
220,rantepao,20.0,ID,1540661646,100.0,-2.97,119.9,63.83,1.48
221,buala,12.0,SB,1540661626,98.0,-8.15,159.59,80.44,3.15
222,bollnas,88.0,SE,1540661646,85.0,61.35,16.39,32.33,10.98
223,ashqelon,0.0,IL,1540659000,52.0,31.67,34.57,71.6,4.7
224,noyabrsk,80.0,RU,1540661647,89.0,63.2,75.45,35.93,12.55
225,rock falls,90.0,US,1540660500,87.0,43.21,-93.08,48.2,4.5
226,tsiroanomandidy,92.0,MG,1540661647,56.0,-18.77,46.05,71.53,4.16
227,shingu,0.0,JP,1540661647,100.0,33.72,135.99,60.91,13.67
228,ukiah,1.0,US,1540659360,67.0,39.15,-123.21,62.6,3.36
229,la rioja,56.0,AR,1540661459,64.0,-29.41,-66.86,75.31,4.05
230,cayenne,75.0,GF,1540659600,59.0,4.94,-52.33,91.4,6.93
231,lebu,0.0,ET,1540661213,53.0,8.96,38.73,55.96,7.4
232,puerto baquerizo moreno,75.0,EC,1540659600,65.0,-0.9,-89.6,77.0,17.22
233,souillac,0.0,FR,1540659600,53.0,45.6,-0.6,50.0,4.7
234,walvis bay,0.0,NA,1540660988,83.0,-22.95,14.51,69.46,10.42
235,tianpeng,0.0,CN,1540661648,85.0,28.88,112.34,51.73,2.37
236,havelock,75.0,US,1540659240,82.0,34.88,-76.9,59.0,14.99
237,lavrentiya,0.0,RU,1540661150,100.0,65.58,-170.99,28.46,25.41
238,agadir,40.0,MA,1540659600,60.0,30.42,-9.58,73.4,12.75
239,dikson,88.0,RU,1540661136,100.0,73.51,80.55,24.1,36.6
240,portland,75.0,US,1540659180,87.0,45.52,-122.67,57.2,4.7
241,srednekolymsk,92.0,RU,1540661039,80.0,67.46,153.71,8.53,6.29
242,udachnyy,92.0,RU,1540661649,81.0,66.42,112.4,22.07,9.31
243,monteagudo,90.0,BO,1540659600,83.0,-19.8,-63.96,69.8,2.71
244,sringeri,0.0,IN,1540659600,69.0,13.43,75.26,82.4,3.36
245,inhambane,20.0,MZ,1540656000,64.0,-23.87,35.38,73.4,9.17
246,kavaratti,8.0,IN,1540661006,98.0,10.57,72.64,85.97,8.75
247,nyrob,88.0,RU,1540661650,83.0,60.74,56.73,33.41,12.88
248,pau brasil,0.0,BR,1540661650,49.0,-15.46,-39.65,92.0,14.56
249,natal,75.0,BR,1540659600,51.0,-5.81,-35.21,86.0,17.22
250,indramayu,88.0,ID,1540661651,96.0,-4.05,103.78,69.05,2.59
251,myitkyina,92.0,MM,1540661253,97.0,25.38,97.4,71.8,2.15
252,san vicente,20.0,SV,1540659000,69.0,13.64,-88.78,89.6,2.24
253,ambulu,76.0,ID,1540661652,100.0,-8.35,113.61,77.06,6.73
254,broome,75.0,GB,1540659660,87.0,52.47,1.45,44.6,5.82
255,harper,1.0,US,1540659300,47.0,30.3,-99.24,77.0,10.29
256,nizhnyaya poyma,0.0,RU,1540661652,76.0,56.16,97.2,28.33,2.59
257,novopokrovka,88.0,RU,1540661653,79.0,45.85,134.51,32.38,7.18
258,tres picos,75.0,MX,1540658400,61.0,16.23,-93.58,82.4,3.36
259,matara,75.0,PE,1540656000,61.0,-13.74,-72.9,50.0,4.7
260,grindavik,90.0,IS,1540657800,100.0,63.84,-22.43,39.2,20.8
261,sur,56.0,OM,1540661010,93.0,22.57,59.53,82.06,11.65
262,sao miguel do araguaia,12.0,BR,1540661124,74.0,-13.28,-50.16,91.69,4.61
263,juneau,90.0,US,1540659180,93.0,58.3,-134.42,44.6,11.41
264,sakaraha,0.0,MG,1540661654,34.0,-22.91,44.53,74.81,11.1
265,hovd,20.0,NO,1540659000,92.0,63.83,10.7,30.2,3.36
266,mount isa,90.0,AU,1540659600,28.0,-20.73,139.49,84.2,18.34
267,derzhavinsk,92.0,KZ,1540661654,100.0,51.1,66.31,47.68,14.23
268,along,0.0,IN,1540661654,53.0,28.17,94.8,60.1,2.37
269,kondinskoye,12.0,RU,1540661655,66.0,59.65,67.41,37.51,8.08
270,roma,75.0,IT,1540659300,88.0,41.89,12.48,71.6,14.99
271,diffa,0.0,NE,1540661655,32.0,13.32,12.61,87.64,5.61
272,trencianske teplice,90.0,SK,1540659600,93.0,48.91,18.17,48.2,9.17
273,pouembout,20.0,NC,1540661656,92.0,-21.12,164.9,63.56,2.04
274,ondjiva,56.0,AO,1540661656,47.0,-17.07,15.73,76.39,3.6
275,oranjemund,0.0,ZA,1540661189,91.0,-28.55,16.43,63.88,11.1
276,greenfield,90.0,US,1540660800,81.0,42.59,-72.6,44.6,14.99
277,caarapo,12.0,BR,1540661656,80.0,-22.63,-54.82,81.11,11.54
278,edendale,0.0,ZA,1540661657,69.0,-29.65,30.31,65.0,2.26
279,osmena,36.0,PH,1540661657,96.0,12.17,124.59,76.52,9.64
280,isangel,0.0,VU,1540660921,100.0,-19.55,169.27,74.36,1.25
281,xingyi,92.0,CN,1540661657,99.0,24.19,102.82,58.52,2.93
282,acapulco,40.0,MX,1540658760,66.0,16.86,-99.88,87.8,3.36
283,ust-omchug,80.0,RU,1540661658,90.0,61.13,149.63,25.13,2.37
284,kargopol,44.0,RU,1540661658,81.0,61.51,38.95,22.84,2.93
285,chingirlau,0.0,KZ,1540661658,81.0,51.09,54.08,37.01,9.75
286,orlik,0.0,RU,1540661659,51.0,52.51,99.83,0.61,1.92
287,santa rosa,36.0,AR,1540661638,63.0,-36.62,-64.29,76.3,9.19
288,curillo,48.0,CO,1540661661,74.0,1.03,-75.92,80.44,2.82
289,statesboro,90.0,US,1540660500,72.0,32.45,-81.78,62.6,9.17
290,guerrero negro,0.0,MX,1540661127,45.0,27.97,-114.04,84.17,4.27
291,pevek,0.0,RU,1540661169,100.0,69.7,170.27,4.43,5.28
292,payo,76.0,ID,1540661661,97.0,-3.75,103.64,72.47,2.93
293,ozernovskiy,32.0,RU,1540661661,99.0,51.5,156.52,32.38,4.94
294,pisco,90.0,PE,1540656000,82.0,-13.71,-76.2,66.2,8.05
295,alyangula,0.0,AU,1540661249,100.0,-13.85,136.42,80.44,7.18
296,marion,1.0,US,1540660500,63.0,35.21,-90.2,64.4,6.93
297,baykit,0.0,RU,1540661662,74.0,61.68,96.39,34.85,9.08
298,marinette,90.0,US,1540659960,87.0,45.1,-87.63,46.4,6.93
299,ruteng,0.0,ID,1540661663,92.0,-8.61,120.46,69.32,4.38
300,ejura,48.0,GH,1540661663,63.0,7.38,-1.37,85.66,6.62
301,burnie,0.0,AU,1540661663,100.0,-41.05,145.91,48.08,12.66
302,vitim,32.0,RU,1540661224,80.0,59.44,112.57,14.6,2.59
303,galle,1.0,US,1540659360,57.0,29.74,-97.91,80.6,12.75
304,yaan,0.0,NG,1540661203,80.0,7.38,8.57,82.15,3.04
305,saurimo,36.0,AO,1540661663,63.0,-9.66,20.4,76.39,2.48
306,victoria,90.0,BN,1540659600,94.0,5.28,115.24,78.8,2.48
307,sale,20.0,GB,1540659000,56.0,53.42,-2.32,44.6,11.41
308,bintulu,75.0,MY,1540659600,94.0,3.17,113.03,77.0,2.04
309,port hardy,40.0,CA,1540659600,87.0,50.7,-127.42,46.4,19.46
310,bemidji,90.0,US,1540660980,87.0,47.48,-94.89,51.8,8.05
311,oyama,75.0,JP,1540656000,77.0,36.31,139.8,59.0,3.36
312,farafenni,20.0,GM,1540661665,71.0,13.57,-15.6,88.54,3.71
313,macultepec,75.0,MX,1540658700,66.0,18.17,-92.83,86.0,3.27
314,xapuri,40.0,BR,1540659600,66.0,-10.65,-68.5,89.6,4.7
315,xunchang,92.0,CN,1540661665,97.0,28.45,104.71,55.69,2.15
316,chumikan,92.0,RU,1540661665,100.0,54.72,135.31,39.31,20.94
317,cabo san lucas,5.0,MX,1540658400,48.0,22.89,-109.91,86.0,10.29
318,victor harbor,75.0,AU,1540659600,62.0,-35.55,138.62,57.2,4.7
319,vila,75.0,IT,1540659000,93.0,45.18,8.4,59.0,14.99
320,itarema,0.0,BR,1540661258,49.0,-2.92,-39.92,90.25,19.93
321,qeshm,40.0,IR,1540659600,83.0,26.96,56.27,82.4,6.93
322,sipoo,75.0,FI,1540660800,74.0,60.38,25.27,33.8,18.34
323,forio,40.0,IT,1540659300,72.0,40.73,13.86,71.6,13.87
324,biasca,40.0,CH,1540659000,93.0,46.36,8.97,59.0,12.75
325,clyde river,75.0,CA,1540659600,85.0,70.47,-68.59,14.0,20.8
326,tamiahua,92.0,MX,1540661667,100.0,21.28,-97.45,69.86,23.73
327,puerto colombia,75.0,CO,1540659600,75.0,10.99,-74.96,89.6,11.41
328,richards bay,0.0,ZA,1540661668,95.0,-28.77,32.06,67.39,2.71
329,leningradskiy,0.0,RU,1540661252,100.0,69.38,178.42,15.46,4.94
330,egvekinot,0.0,RU,1540661209,72.0,66.32,-179.17,-11.32,2.26
331,boyuibe,90.0,BO,1540659600,83.0,-20.43,-63.28,69.8,8.19
332,rio gallegos,40.0,AR,1540656000,26.0,-51.62,-69.22,59.0,33.33
333,kangaba,0.0,ML,1540661669,53.0,11.94,-8.41,86.42,4.83
334,kawalu,80.0,ID,1540661669,100.0,-7.38,108.21,67.25,2.15
335,kofele,64.0,ET,1540661670,79.0,7.07,38.78,53.57,0.92
336,suraabad,0.0,AZ,1540659600,87.0,40.82,49.47,50.0,3.36
337,torbay,40.0,CA,1540659600,48.0,47.66,-52.73,44.6,19.46
338,ancud,92.0,CL,1540660949,98.0,-41.87,-73.83,55.15,5.73
339,parabel,92.0,RU,1540661670,58.0,58.71,81.5,49.43,11.43
340,paita,0.0,PE,1540659600,73.0,-5.09,-81.11,75.2,13.87
341,papara,75.0,BR,1540659600,62.0,-3.98,-38.73,86.0,19.46
342,sandwich,40.0,GB,1540660800,81.0,51.28,1.34,42.8,13.87
343,yulara,8.0,AU,1540659600,77.0,-25.24,130.99,66.2,5.82
344,novo cruzeiro,36.0,BR,1540661671,48.0,-17.47,-41.88,89.03,11.77
345,maragogi,0.0,BR,1540661672,66.0,-9.01,-35.22,84.04,14.34
346,kholuy,64.0,RU,1540661672,89.0,56.58,41.87,30.85,10.54
347,port lincoln,92.0,AU,1540661193,99.0,-34.72,135.86,57.4,6.17
348,sumenep,44.0,ID,1540661672,100.0,-7.02,113.87,81.79,0.92
349,sao pedro,20.0,PT,1540659600,47.0,41.13,-7.96,57.2,17.22
350,coswig,40.0,DE,1540660800,70.0,51.13,13.58,44.6,3.36
351,belle glade,40.0,US,1540659300,54.0,26.68,-80.67,84.2,13.87
352,teguise,20.0,ES,1540659600,64.0,29.06,-13.56,75.2,11.41
353,okhotsk,24.0,RU,1540661673,100.0,59.36,143.24,24.1,4.72
354,haines junction,0.0,CA,1540660980,89.0,60.75,-137.51,17.89,2.15
355,cockburn town,0.0,TC,1540661011,99.0,21.46,-71.14,83.27,9.19
356,rota,40.0,ES,1540659600,55.0,36.62,-6.36,66.2,10.29
357,constitucion,20.0,MX,1540658820,52.0,23.99,-104.67,64.4,5.82
358,paros,88.0,FR,1540661674,94.0,44.39,3.51,38.18,2.93
359,gamba,0.0,CN,1540661253,59.0,28.28,88.52,-4.35,2.26
360,muhos,0.0,FI,1540660800,94.0,64.81,26.0,32.0,8.05
361,severo-kurilsk,36.0,RU,1540661090,100.0,50.68,156.12,37.01,5.5
362,sitka,0.0,US,1540661179,36.0,37.17,-99.65,71.98,8.19
363,devils lake,90.0,US,1540660500,87.0,48.11,-98.87,42.8,3.36
364,atar,24.0,MR,1540661164,15.0,20.52,-13.05,97.58,4.5
365,tilichiki,92.0,RU,1540661197,92.0,60.47,166.1,35.44,3.94
366,atambua,0.0,ID,1540661232,100.0,-9.11,124.89,74.95,5.84
367,kalmunai,80.0,LK,1540661125,100.0,7.42,81.82,73.15,7.74
368,luchenza,0.0,MW,1540661676,56.0,-16.01,35.31,73.01,7.74
369,purnia,8.0,IN,1540661676,89.0,25.78,87.47,69.32,2.59
370,bandarbeyla,0.0,SO,1540661677,100.0,9.49,50.81,77.11,6.62
371,la ronge,90.0,CA,1540659600,86.0,55.1,-105.3,32.0,2.24
372,manzhouli,0.0,CN,1540661677,60.0,49.6,117.43,20.36,16.35
373,norman wells,90.0,CA,1540659600,92.0,65.28,-126.83,23.0,3.38
374,sinnamary,24.0,GF,1540661019,91.0,5.38,-52.96,83.27,6.62
375,awjilah,64.0,LY,1540661677,37.0,29.14,21.3,72.38,7.07
376,luzhou,100.0,CN,1540661678,100.0,28.89,105.45,59.87,2.82
377,koson,20.0,UZ,1540659600,22.0,39.04,65.59,78.8,6.93
378,dudinka,88.0,RU,1540661211,96.0,69.41,86.18,34.58,23.51
379,nikolsk,88.0,RU,1540661678,81.0,59.53,45.45,31.88,8.08
380,northam,40.0,GB,1540660800,93.0,51.04,-4.21,42.8,12.75
381,touros,0.0,BR,1540661160,65.0,-5.2,-35.46,84.94,14.9
382,atbasar,92.0,KZ,1540661679,100.0,51.81,68.36,49.3,8.41
383,yinchuan,0.0,CN,1540661679,63.0,38.48,106.21,22.16,1.36
384,morros,20.0,BR,1540659600,55.0,-2.87,-44.04,89.6,13.87
385,izumo,75.0,JP,1540656000,62.0,35.37,132.75,57.2,3.36
386,terrace,90.0,CA,1540659600,100.0,54.52,-128.61,41.0,9.17
387,fuling,80.0,CN,1540661680,99.0,29.71,107.39,59.83,2.71
388,saint-francois,90.0,FR,1540659600,81.0,46.42,3.91,44.6,3.36
389,menongue,20.0,AO,1540661680,29.0,-14.66,17.68,77.15,5.39
390,gorontalo,8.0,ID,1540661418,79.0,0.54,123.06,76.21,1.59
391,winnemucca,1.0,US,1540659360,29.0,40.97,-117.74,62.6,3.49
392,beyneu,92.0,KZ,1540661681,70.0,45.32,55.19,48.31,18.48
393,marapanim,56.0,BR,1540661681,92.0,-0.71,-47.7,84.08,13.22
394,koundara,12.0,GN,1540661681,75.0,12.49,-13.3,88.36,2.82
395,pangody,44.0,RU,1540661682,87.0,65.85,74.49,30.17,24.63
396,abu dhabi,0.0,AE,1540659600,66.0,24.47,54.37,86.0,5.82
397,makakilo city,20.0,US,1540659420,83.0,21.35,-158.09,78.8,4.7
398,rio tercero,64.0,AR,1540661682,53.0,-32.17,-64.11,73.82,13.0
399,nador,20.0,MA,1540659600,77.0,35.17,-2.93,68.0,11.41
400,padang,80.0,ID,1540661682,100.0,-0.92,100.36,80.71,2.93
401,svetlogorsk,40.0,RU,1540659600,74.0,53.14,59.15,33.8,8.95
402,saldanha,32.0,PT,1540661174,62.0,41.42,-6.55,43.99,10.65
403,laguna,5.0,MX,1540658580,42.0,27.52,-110.01,82.4,2.24
404,heihe,75.0,RU,1540659600,86.0,50.24,127.51,28.4,8.95
405,qandala,8.0,SO,1540661684,95.0,11.47,49.87,68.65,2.48
406,sao felix do xingu,20.0,BR,1540661684,59.0,-6.64,-51.99,90.92,2.71
407,ternate,20.0,PH,1540659600,88.0,14.29,120.72,80.6,1.12
408,shakhtinsk,40.0,KZ,1540659600,40.0,49.71,72.59,53.6,24.61
409,puerto escondido,5.0,MX,1540658460,62.0,15.86,-97.07,87.8,5.39
410,batabano,75.0,CU,1540659300,66.0,22.72,-82.29,86.0,9.17
411,suruc,0.0,TR,1540659000,57.0,36.98,38.42,51.8,6.93
412,omboue,88.0,GA,1540661685,100.0,-1.57,9.26,79.58,8.75
413,wasilla,90.0,US,1540659840,86.0,61.58,-149.44,44.6,3.27
414,ferme-neuve,24.0,CA,1540661630,60.0,46.7,-75.45,39.49,7.4
415,adrar,0.0,DZ,1540659600,32.0,27.87,-0.29,80.6,12.75
416,jumla,56.0,NP,1540661186,98.0,29.28,82.18,29.86,1.7
417,flinders,90.0,AU,1540656000,82.0,-34.58,150.85,60.8,5.82
418,meiganga,56.0,CM,1540661686,99.0,6.52,14.29,66.17,4.61
419,kruisfontein,0.0,ZA,1540660941,79.0,-34.0,24.73,67.3,15.9
420,nantucket,90.0,US,1540658820,93.0,41.28,-70.1,53.6,17.22
421,ulaangom,12.0,MN,1540661687,47.0,49.98,92.07,5.74,2.15
422,bara,8.0,NG,1540661687,50.0,10.41,10.6,85.52,3.6
423,beloha,20.0,MG,1540661260,77.0,-25.17,45.06,66.71,10.76
424,agadez,75.0,NE,1540659600,36.0,16.97,7.99,93.2,11.41
425,coruripe,0.0,BR,1540661687,88.0,-10.12,-36.18,81.2,20.15
426,muros,75.0,ES,1540659600,93.0,42.77,-9.06,41.0,6.93
427,sao filipe,64.0,CV,1540661173,95.0,14.9,-24.5,79.36,13.11
428,seminole,1.0,US,1540659300,33.0,32.72,-102.64,73.4,4.7
429,viedma,32.0,AR,1540661203,48.0,-40.81,-62.99,75.58,11.43
430,eyl,8.0,SO,1540661688,100.0,7.98,49.82,76.39,7.63
431,tigzirt,76.0,DZ,1540661689,46.0,36.57,4.2,69.91,6.62
432,kocerin,20.0,BA,1540659600,64.0,43.39,17.48,69.8,8.05
433,tomatlan,0.0,MX,1540661689,69.0,19.93,-105.25,84.35,4.38
434,pacific grove,40.0,US,1540659300,87.0,36.62,-121.92,62.6,3.36
435,deputatskiy,80.0,RU,1540661021,73.0,69.3,139.9,-0.3,2.93
436,shimoda,0.0,JP,1540661690,100.0,34.7,138.93,65.9,21.83
437,moussoro,0.0,TD,1540661690,25.0,13.64,16.49,90.16,8.97
438,kamphaeng phet,48.0,TH,1540661690,88.0,16.47,99.53,77.33,4.5
439,gobabis,76.0,NA,1540659600,11.0,-22.45,18.97,89.6,4.7
440,qaqortoq,75.0,GL,1540659000,93.0,60.72,-46.03,37.4,3.36
441,warrnambool,48.0,AU,1540661691,100.0,-38.38,142.48,49.75,5.39
442,bulgan,0.0,MN,1540661691,67.0,48.81,103.53,20.63,4.16
443,balan,75.0,FR,1540659600,93.0,45.83,5.1,48.2,10.29
444,pinawa,92.0,CA,1540661691,100.0,50.15,-95.88,42.5,10.76
445,los llanos de aridane,40.0,ES,1540659600,69.0,28.66,-17.92,73.4,6.93
446,shenzhen,20.0,CN,1540659600,41.0,22.54,114.05,77.0,10.29
447,faya,40.0,SA,1540656000,82.0,18.39,42.45,66.2,5.82
448,kirkwall,64.0,GB,1540660800,75.0,58.98,-2.96,46.4,17.22
449,zhenhai,0.0,CN,1540659600,76.0,29.95,121.71,50.0,2.24
450,baie-comeau,1.0,CA,1540659600,60.0,49.22,-68.15,32.0,8.05
451,labuhan,8.0,ID,1540661692,97.0,-2.54,115.51,70.76,0.92
452,nautla,92.0,MX,1540661692,100.0,20.22,-96.78,72.7,26.75
453,mahon,20.0,IE,1540659600,100.0,51.89,-8.4,41.0,12.75
454,mocajuba,0.0,BR,1540661693,66.0,-2.58,-49.5,89.03,3.27
455,nago,90.0,IT,1540659300,93.0,45.88,10.89,59.0,38.03
456,merauke,44.0,ID,1540661693,88.0,-8.49,140.4,80.44,10.54
457,waddan,8.0,LY,1540661693,41.0,29.16,16.14,76.7,14.9
458,maues,12.0,BR,1540661694,56.0,-3.38,-57.72,93.26,5.28
459,berlevag,88.0,NO,1540661155,100.0,70.86,29.09,32.56,16.69
460,khandyga,8.0,RU,1540661694,96.0,62.65,135.58,6.28,4.72
461,matagami,44.0,NG,1540661694,85.0,9.67,8.4,73.6,2.93
462,lata,0.0,IN,1540661185,70.0,30.78,78.62,42.01,2.71
463,harlingen,1.0,US,1540659300,51.0,26.19,-97.7,80.6,3.36
464,lasa,75.0,CY,1540659600,53.0,34.92,32.53,71.6,3.36
465,cabatuan,80.0,PH,1540661695,95.0,16.95,121.67,72.65,7.18
466,kirzhach,80.0,RU,1540661256,96.0,56.16,38.87,34.22,11.88
467,srandakan,32.0,ID,1540661695,95.0,-7.94,110.25,71.03,3.6
468,virginia beach,90.0,US,1540659540,87.0,36.85,-75.98,57.2,14.99
469,fairbanks,90.0,US,1540659660,100.0,64.84,-147.72,30.2,2.59
470,dengzhou,0.0,CN,1540661696,75.0,32.69,112.08,44.12,3.71
471,hirara,24.0,JP,1540661631,100.0,24.8,125.28,74.23,27.2
472,milkovo,0.0,BG,1540659600,62.0,41.53,24.68,60.8,1.7
473,talnakh,88.0,RU,1540660949,93.0,69.49,88.39,35.53,21.5
474,xiangxiang,0.0,CN,1540661696,67.0,27.73,112.52,53.8,5.61
475,abnub,0.0,EG,1540659600,38.0,27.27,31.15,77.0,12.75
476,vestmanna,64.0,FO,1540660800,75.0,62.16,-7.17,41.0,8.05
477,sakaiminato,75.0,JP,1540656000,62.0,35.55,133.23,57.2,3.36
478,cap malheureux,20.0,MU,1540659600,73.0,-19.98,57.61,71.6,3.36
479,hualmay,0.0,PE,1540661151,60.0,-11.1,-77.61,72.02,5.73
480,kathu,0.0,ZA,1540661685,40.0,-27.7,23.05,74.68,3.71
481,baghdad,0.0,IQ,1540659600,44.0,33.3,44.38,60.8,5.82
482,rundu,44.0,NA,1540661698,23.0,-17.91,19.77,79.0,6.17
483,yerbogachen,88.0,RU,1540661250,97.0,61.28,108.01,30.94,5.73
484,ulladulla,90.0,AU,1540656000,82.0,-35.36,150.48,60.8,5.82
485,salisbury,75.0,GB,1540661160,80.0,51.07,-1.8,41.0,11.41
486,hofn,48.0,IS,1540661670,100.0,64.25,-15.21,35.26,7.63
487,caohai,92.0,CN,1540661698,100.0,26.87,104.28,47.5,3.6
488,codrington,0.0,AU,1540660968,91.0,-28.95,153.24,57.35,3.15
489,khao yoi,80.0,TH,1540661699,89.0,13.24,99.82,74.18,2.71
490,sohag,0.0,EG,1540661699,48.0,26.55,31.7,64.28,5.5
491,kampot,92.0,KH,1540661699,98.0,10.62,104.18,71.93,5.73
492,kununurra,8.0,AU,1540659600,57.0,-15.77,128.74,80.6,3.36
493,caala,40.0,AO,1540656000,47.0,-12.85,15.56,78.8,11.41
494,changji,0.0,CN,1540661700,69.0,32.07,116.17,44.35,4.61
495,manado,40.0,ID,1540659600,94.0,1.49,124.85,77.0,1.12
496,sao joao da barra,75.0,BR,1540659600,74.0,-21.64,-41.05,82.4,8.05
497,havre,1.0,US,1540659180,61.0,48.55,-109.68,48.2,10.29
498,ribeirao bonito,68.0,BR,1540661701,88.0,-22.07,-48.18,74.86,15.46
499,weinan,0.0,CN,1540659600,66.0,34.5,109.46,35.6,4.94
500,starokostyantyniv,36.0,UA,1540661701,86.0,49.76,27.2,55.15,11.54
501,avera,75.0,US,1540660500,67.0,33.19,-82.53,62.6,13.87
502,nishihara,75.0,JP,1540659360,71.0,35.74,139.53,66.2,3.36
503,itoman,75.0,JP,1540659360,60.0,26.12,127.67,71.6,11.41
504,kachiry,92.0,KZ,1540661702,42.0,53.07,76.1,55.28,11.21
505,ugoofaaru,80.0,MV,1540661702,100.0,5.67,73.0,79.31,2.15
506,port augusta,92.0,AU,1540659600,72.0,-32.49,137.76,59.0,5.82
507,aguimes,75.0,ES,1540659600,83.0,27.91,-15.45,71.6,6.93
508,songjianghe,88.0,CN,1540661703,69.0,42.18,127.48,29.63,9.75
509,vila velha,75.0,BR,1540659600,62.0,-3.71,-38.6,86.0,19.46
510,balkanabat,0.0,TM,1540661703,82.0,39.51,54.36,39.98,2.26
511,santiago del estero,20.0,AR,1540661703,80.0,-27.8,-64.26,76.3,7.07
512,lahij,0.0,YE,1540661164,82.0,13.06,44.88,68.06,3.15
513,djambala,24.0,CG,1540661704,88.0,-2.55,14.76,76.61,2.82
514,namtsy,64.0,RU,1540661704,85.0,62.72,129.66,14.29,2.59
515,zyryanka,76.0,RU,1540661704,77.0,65.73,150.89,7.36,5.61
516,ahtopol,0.0,BG,1540659600,59.0,42.1,27.94,66.2,12.75
517,nouadhibou,8.0,MR,1540659600,73.0,20.93,-17.03,73.4,19.46
518,salvatierra,90.0,MX,1540660140,82.0,20.22,-100.88,66.2,2.24
519,buin,40.0,CL,1540659600,27.0,-33.73,-70.74,78.8,12.75
520,muroto,12.0,JP,1540661705,100.0,33.37,134.14,52.31,5.95
521,plettenberg bay,0.0,ZA,1540661195,91.0,-34.05,23.37,65.63,16.24
522,minsk,0.0,BY,1540657800,76.0,53.9,27.56,48.2,6.71
523,tura,0.0,IN,1540661706,90.0,25.52,90.21,67.39,2.15
524,meadow lake,20.0,CA,1540659600,63.0,54.13,-108.44,44.6,18.34
525,limon,1.0,US,1540659300,25.0,39.26,-103.69,66.2,12.75
526,taoudenni,0.0,ML,1540661706,21.0,22.68,-3.98,81.25,4.94
527,ghanzi,0.0,BW,1540661706,21.0,-21.7,21.65,78.05,10.54
528,valparaiso,40.0,US,1540660500,54.0,41.47,-87.06,53.6,9.17
529,pramanta,40.0,GR,1540659000,82.0,39.52,21.1,62.6,1.59
530,petropavlovsk-kamchatskiy,75.0,RU,1540656000,86.0,53.05,158.65,37.4,6.71
531,naze,75.0,NG,1540656000,59.0,5.43,7.07,89.6,2.24
532,marsaxlokk,40.0,MT,1540658700,73.0,35.84,14.54,71.6,14.99
533,tessalit,0.0,ML,1540661374,23.0,20.2,1.01,73.51,4.38
534,mahina,12.0,ML,1540661708,50.0,13.76,-10.85,89.89,3.04
535,iberia,92.0,PE,1540661708,96.0,-11.41,-69.49,74.45,3.04
536,skjervoy,80.0,NO,1540661138,100.0,70.03,20.97,35.75,13.22
537,nome,1.0,US,1540659300,53.0,30.04,-94.42,77.0,5.82
538,kamaishi,0.0,JP,1540661708,94.0,39.28,141.86,50.15,5.61
539,calabozo,12.0,VE,1540661709,42.0,8.92,-67.43,98.53,10.42
540,latung,0.0,ID,1540661709,92.0,-8.45,120.42,69.32,4.38
541,najran,0.0,SA,1540659600,28.0,17.54,44.22,80.6,6.93
542,finschhafen,88.0,PG,1540661709,97.0,-6.6,147.85,72.16,3.15
543,novochernorechenskiy,0.0,RU,1540661710,77.0,56.27,91.08,35.48,5.17
544,isselburg,40.0,DE,1540661100,87.0,51.83,6.46,46.4,2.24
545,mildura,64.0,AU,1540661710,68.0,-34.18,142.16,56.41,9.08
546,sorland,92.0,NO,1540661710,100.0,67.67,12.69,42.01,18.48
547,turukhansk,92.0,RU,1540661710,90.0,65.8,87.96,36.92,19.71
548,tabas,88.0,IR,1540659600,29.0,33.6,56.92,78.8,6.93
549,velyka mykhaylivka,0.0,UA,1540661711,69.0,47.08,29.85,56.41,10.54
550,cochrane,8.0,CL,1540661711,41.0,-47.25,-72.57,59.51,2.59
